[{"geo_point_2d":{"lon":-5.18596523132904,"lat":39.43843169117692},"year":2022,"acom_code":11,"acom_name":"Extremadura","prov_code":10,"prov_name":"Cáceres","mun_code":10017,"mun_name":"Alía","mun_area_code":"ESP","mun_type":"municipality","mun_name_local":null,"FID":0},{"geo_point_2d":{"lon":-5.812185299799566,"lat":40.322038389762724},"year":2022,"acom_code":11,"acom_name":"Extremadura","prov_code":10,"prov_name":"Cáceres","mun_code":10078,"mun_name":"La Garganta","mun_area_code":"ESP","mun_type":"municipality","mun_name_local":null},{"geo_point_2d":{"lon":-7.004215126737253,"lat":39.47087581266341},"year":2022,"acom_code":11,"acom_name":"Extremadura","prov_code":10,"prov_name":"Cáceres","mun_code":10162,"mun_name":"Salorino","mun_area_code":"ESP","mun_type":"municipality","mun_name_local":null},{"geo_point_2d":{"lon":-5.997882174404717,"lat":40.125128004138936},"year":2022,"acom_code":11,"acom_name":"Extremadura","prov_code":10,"prov_name":"Cáceres","mun_code":10034,"mun_name":"Cabezabellosa","mun_area_code":"ESP","mun_type":"municipality","mun_name_local":null},{"geo_point_2d":{"lon":-6.272359128226572,"lat":40.28714203582638},"year":2022,"acom_code":11,"acom_name":"Extremadura","prov_code":10,"prov_name":"Cáceres","mun_code":10050,"mun_name":"Casar de Palomero","mun_area_code":"ESP","mun_type":"municipality","mun_name_local":null},{"geo_point_2d":{"lon":-6.310616448194591,"lat":40.43722167508876},"year":2022,"acom_code":11,"acom_name":"Extremadura","prov_code":10,"prov_name":"Cáceres","mun_code":10051,"mun_name":"Casares de las Hurdes","mun_area_code":"ESP","mun_type":"municipality","mun_name_local":null},{"geo_point_2d":{"lon":-6.3887971346368,"lat":40.33484743387639},"year":2022,"acom_code":11,"acom_name":"Extremadura","prov_code":10,"prov_name":"Cáceres","mun_code":10146,"mun_name":"Pinofranqueado","mun_area_code":"ESP","mun_type":"municipality","mun_name_local":null},{"geo_point_2d":{"lon":-5.815534814304847,"lat":39.815880932467884},"year":2022,"acom_code":11,"acom_name":"Extremadura","prov_code":10,"prov_name":"Cáceres","mun_code":10176,"mun_name":"Serrejón","mun_area_code":"ESP","mun_type":"municipality","mun_name_local":null},{"geo_point_2d":{"lon":-6.415469505879121,"lat":40.25445606208256},"year":2022,"acom_code":11,"acom_name":"Extremadura","prov_code":10,"prov_name":"Cáceres","mun_code":10185,"mun_name":"Torrecilla de los Ángeles","mun_area_code":"ESP","mun_type":"municipality","mun_name_local":null},{"geo_point_2d":{"lon":-6.2598507571588025,"lat":39.358994066261324},"year":2022,"acom_code":11,"acom_name":"Extremadura","prov_code":10,"prov_name":"Cáceres","mun_code":10193,"mun_name":"Torreorgaz","mun_area_code":"ESP","mun_type":"municipality","mun_name_local":null},{"geo_point_2d":{"lon":-6.720072414768896,"lat":40.21690055941228},"year":2022,"acom_code":11,"acom_name":"Extremadura","prov_code":10,"prov_name":"Cáceres","mun_code":10003,"mun_name":"Acebo","mun_area_code":"ESP","mun_type":"municipality","mun_name_local":null},{"geo_point_2d":{"lon":-6.307546711373483,"lat":40.13343418833305},"year":2022,"acom_code":11,"acom_name":"Extremadura","prov_code":10,"prov_name":"Cáceres","mun_code":10005,"mun_name":"Aceituna","mun_area_code":"ESP","mun_type":"municipality","mun_name_local":null},{"geo_point_2d":{"lon":-6.052591994154777,"lat":39.93814870372715},"year":2022,"acom_code":11,"acom_name":"Extremadura","prov_code":10,"prov_name":"Cáceres","mun_code":10116,"mun_name":"Malpartida de Plasencia","mun_area_code":"ESP","mun_type":"municipality","mun_name_local":null},{"geo_point_2d":{"lon":-5.565455000581304,"lat":39.85505270922546},"year":2022,"acom_code":11,"acom_name":"Extremadura","prov_code":10,"prov_name":"Cáceres","mun_code":10122,"mun_name":"Millanes","mun_area_code":"ESP","mun_type":"municipality","mun_name_local":null},{"geo_point_2d":{"lon":-6.336013171232385,"lat":40.054338073027694},"year":2022,"acom_code":11,"acom_name":"Extremadura","prov_code":10,"prov_name":"Cáceres","mun_code":10127,"mun_name":"Montehermoso","mun_area_code":"ESP","mun_type":"municipality","mun_name_local":null},{"geo_point_2d":{"lon":-6.140981000012695,"lat":40.014767799792494},"year":2022,"acom_code":11,"acom_name":"Extremadura","prov_code":10,"prov_name":"Cáceres","mun_code":10148,"mun_name":"Plasencia","mun_area_code":"ESP","mun_type":"municipality","mun_name_local":null},{"geo_point_2d":{"lon":-6.0483804117530635,"lat":39.37225209576365},"year":2022,"acom_code":11,"acom_name":"Extremadura","prov_code":10,"prov_name":"Cáceres","mun_code":10149,"mun_name":"Plasenzuela","mun_area_code":"ESP","mun_type":"municipality","mun_name_local":null},{"geo_point_2d":{"lon":-5.5799156807909585,"lat":40.08760827396009},"year":2022,"acom_code":11,"acom_name":"Extremadura","prov_code":10,"prov_name":"Cáceres","mun_code":10157,"mun_name":"Robledillo de la Vera","mun_area_code":"ESP","mun_type":"municipality","mun_name_local":null},{"geo_point_2d":{"lon":-6.2108820484694505,"lat":39.26344932915152},"year":2022,"acom_code":11,"acom_name":"Extremadura","prov_code":10,"prov_name":"Cáceres","mun_code":10007,"mun_name":"Albalá","mun_area_code":"ESP","mun_type":"municipality","mun_name_local":null},{"geo_point_2d":{"lon":-5.3535069248894835,"lat":39.82419615873639},"year":2022,"acom_code":11,"acom_name":"Extremadura","prov_code":10,"prov_name":"Cáceres","mun_code":10028,"mun_name":"Berrocalejo","mun_area_code":"ESP","mun_type":"municipality","mun_name_local":null},{"geo_point_2d":{"lon":-5.952880384462466,"lat":40.196361090897895},"year":2022,"acom_code":11,"acom_name":"Extremadura","prov_code":10,"prov_name":"Cáceres","mun_code":10055,"mun_name":"Casas del Monte","mun_area_code":"ESP","mun_type":"municipality","mun_name_local":null},{"geo_point_2d":{"lon":-6.27962579761794,"lat":39.79162286256898},"year":2022,"acom_code":11,"acom_name":"Extremadura","prov_code":10,"prov_name":"Cáceres","mun_code":10056,"mun_name":"Casas de Millán","mun_area_code":"ESP","mun_type":"municipality","mun_name_local":null},{"geo_point_2d":{"lon":-6.4993173564263165,"lat":39.441770762189286},"year":2022,"acom_code":11,"acom_name":"Extremadura","prov_code":10,"prov_name":"Cáceres","mun_code":10115,"mun_name":"Malpartida de Cáceres","mun_area_code":"ESP","mun_type":"municipality","mun_name_local":null},{"geo_point_2d":{"lon":-5.976250672462056,"lat":39.754792454693295},"year":2022,"acom_code":11,"acom_name":"Extremadura","prov_code":10,"prov_name":"Cáceres","mun_code":10190,"mun_name":"Torrejón el Rubio","mun_area_code":"ESP","mun_type":"municipality","mun_name_local":null},{"geo_point_2d":{"lon":-5.779561521720359,"lat":40.03602854718313},"year":2022,"acom_code":11,"acom_name":"Extremadura","prov_code":10,"prov_name":"Cáceres","mun_code":10191,"mun_name":"Torremenga","mun_area_code":"ESP","mun_type":"municipality","mun_name_local":null},{"geo_point_2d":{"lon":-6.065813751809,"lat":39.20395149833322},"year":2022,"acom_code":11,"acom_name":"Extremadura","prov_code":10,"prov_name":"Cáceres","mun_code":10201,"mun_name":"Valdemorales","mun_area_code":"ESP","mun_type":"municipality","mun_name_local":null},{"geo_point_2d":{"lon":-6.626207177352519,"lat":40.164065468806896},"year":2022,"acom_code":11,"acom_name":"Extremadura","prov_code":10,"prov_name":"Cáceres","mun_code":10215,"mun_name":"Villasbuenas de Gata","mun_area_code":"ESP","mun_type":"municipality","mun_name_local":null},{"geo_point_2d":{"lon":-5.463434592645364,"lat":39.98416851468365},"year":2022,"acom_code":11,"acom_name":"Extremadura","prov_code":10,"prov_name":"Cáceres","mun_code":10901,"mun_name":"Rosalejo","mun_area_code":"ESP","mun_type":"municipality","mun_name_local":null},{"geo_point_2d":{"lon":-5.937701675946793,"lat":40.26258210485883},"year":2022,"acom_code":11,"acom_name":"Extremadura","prov_code":10,"prov_name":"Cáceres","mun_code":10015,"mun_name":"Aldeanueva del Camino","mun_area_code":"ESP","mun_type":"municipality","mun_name_local":null},{"geo_point_2d":{"lon":-5.683362206240889,"lat":39.92368337293064},"year":2022,"acom_code":11,"acom_name":"Extremadura","prov_code":10,"prov_name":"Cáceres","mun_code":10058,"mun_name":"Casatejada","mun_area_code":"ESP","mun_type":"municipality","mun_name_local":null},{"geo_point_2d":{"lon":-6.864819383906386,"lat":39.43371952564058},"year":2022,"acom_code":11,"acom_name":"Extremadura","prov_code":10,"prov_name":"Cáceres","mun_code":10095,"mun_name":"Herreruela","mun_area_code":"ESP","mun_type":"municipality","mun_name_local":null},{"geo_point_2d":{"lon":-5.743296679911248,"lat":40.22245427864846},"year":2022,"acom_code":11,"acom_name":"Extremadura","prov_code":10,"prov_name":"Cáceres","mun_code":10107,"mun_name":"Jerte","mun_area_code":"ESP","mun_type":"municipality","mun_name_local":null},{"geo_point_2d":{"lon":-5.579412798331212,"lat":40.144744509857105},"year":2022,"acom_code":11,"acom_name":"Extremadura","prov_code":10,"prov_name":"Cáceres","mun_code":10110,"mun_name":"Losar de la Vera","mun_area_code":"ESP","mun_type":"municipality","mun_name_local":null},{"geo_point_2d":{"lon":-6.229494190207045,"lat":39.85961404479154},"year":2022,"acom_code":11,"acom_name":"Extremadura","prov_code":10,"prov_name":"Cáceres","mun_code":10123,"mun_name":"Mirabel","mun_area_code":"ESP","mun_type":"municipality","mun_name_local":null},{"geo_point_2d":{"lon":-6.194113436207146,"lat":39.183162682845136},"year":2022,"acom_code":11,"acom_name":"Extremadura","prov_code":10,"prov_name":"Cáceres","mun_code":10126,"mun_name":"Montánchez","mun_area_code":"ESP","mun_type":"municipality","mun_name_local":null},{"geo_point_2d":{"lon":-6.939658940686395,"lat":39.78468914957844},"year":2022,"acom_code":11,"acom_name":"Extremadura","prov_code":10,"prov_name":"Cáceres","mun_code":10145,"mun_name":"Piedras Albas","mun_area_code":"ESP","mun_type":"municipality","mun_name_local":null},{"geo_point_2d":{"lon":-6.565906163686723,"lat":40.219669010113876},"year":2022,"acom_code":11,"acom_name":"Extremadura","prov_code":10,"prov_name":"Cáceres","mun_code":10187,"mun_name":"Torre de Don Miguel","mun_area_code":"ESP","mun_type":"municipality","mun_name_local":null},{"geo_point_2d":{"lon":-6.2316243974223795,"lat":39.34055796280162},"year":2022,"acom_code":11,"acom_name":"Extremadura","prov_code":10,"prov_name":"Cáceres","mun_code":10194,"mun_name":"Torrequemada","mun_area_code":"ESP","mun_type":"municipality","mun_name_local":null},{"geo_point_2d":{"lon":-6.008024223252664,"lat":40.281901660525165},"year":2022,"acom_code":11,"acom_name":"Extremadura","prov_code":10,"prov_name":"Cáceres","mun_code":10001,"mun_name":"Abadía","mun_area_code":"ESP","mun_type":"municipality","mun_name_local":null},{"geo_point_2d":{"lon":-6.085520153961159,"lat":39.34223179986952},"year":2022,"acom_code":11,"acom_name":"Extremadura","prov_code":10,"prov_name":"Cáceres","mun_code":10031,"mun_name":"Botija","mun_area_code":"ESP","mun_type":"municipality","mun_name_local":null},{"geo_point_2d":{"lon":-6.449154672308345,"lat":39.37072257999459},"year":2022,"acom_code":11,"acom_name":"Extremadura","prov_code":10,"prov_name":"Cáceres","mun_code":10037,"mun_name":"Cáceres","mun_area_code":"ESP","mun_type":"municipality","mun_name_local":null,"FID":40},{"geo_point_2d":{"lon":-5.581716523256562,"lat":39.71330667934232},"year":2022,"acom_code":11,"acom_name":"Extremadura","prov_code":10,"prov_name":"Cáceres","mun_code":10042,"mun_name":"Campillo de Deleitosa","mun_area_code":"ESP","mun_type":"municipality","mun_name_local":null},{"geo_point_2d":{"lon":-6.4674993334969475,"lat":40.06286973169082},"year":2022,"acom_code":11,"acom_name":"Extremadura","prov_code":10,"prov_name":"Cáceres","mun_code":10088,"mun_name":"Guijo de Coria","mun_area_code":"ESP","mun_type":"municipality","mun_name_local":null},{"geo_point_2d":{"lon":-7.38865940744715,"lat":39.594187225339184},"year":2022,"acom_code":11,"acom_name":"Extremadura","prov_code":10,"prov_name":"Cáceres","mun_code":10094,"mun_name":"Herrera de Alcántara","mun_area_code":"ESP","mun_type":"municipality","mun_name_local":null},{"geo_point_2d":{"lon":-5.428036944681052,"lat":39.50542942437137},"year":2022,"acom_code":11,"acom_name":"Extremadura","prov_code":10,"prov_name":"Cáceres","mun_code":10134,"mun_name":"Navezuelas","mun_area_code":"ESP","mun_type":"municipality","mun_name_local":null},{"geo_point_2d":{"lon":-5.389798758239192,"lat":39.75031113042959},"year":2022,"acom_code":11,"acom_name":"Extremadura","prov_code":10,"prov_name":"Cáceres","mun_code":10141,"mun_name":"Peraleda de San Román","mun_area_code":"ESP","mun_type":"municipality","mun_name_local":null},{"geo_point_2d":{"lon":-5.479444106287936,"lat":40.00264776386837},"year":2022,"acom_code":11,"acom_name":"Extremadura","prov_code":10,"prov_name":"Cáceres","mun_code":10180,"mun_name":"Talayuela","mun_area_code":"ESP","mun_type":"municipality","mun_name_local":null},{"geo_point_2d":{"lon":-6.726688180212144,"lat":40.04270858909572},"year":2022,"acom_code":11,"acom_name":"Extremadura","prov_code":10,"prov_name":"Cáceres","mun_code":10902,"mun_name":"Vegaviana","mun_area_code":"ESP","mun_type":"municipality","mun_name_local":null},{"geo_point_2d":{"lon":-5.508362091075548,"lat":39.44975532195621},"year":2022,"acom_code":11,"acom_name":"Extremadura","prov_code":10,"prov_name":"Cáceres","mun_code":10029,"mun_name":"Berzocana","mun_area_code":"ESP","mun_type":"municipality","mun_name_local":null},{"geo_point_2d":{"lon":-5.38828047726121,"lat":39.370264608679484},"year":2022,"acom_code":11,"acom_name":"Extremadura","prov_code":10,"prov_name":"Cáceres","mun_code":10044,"mun_name":"Cañamero","mun_area_code":"ESP","mun_type":"municipality","mun_name_local":null},{"geo_point_2d":{"lon":-6.000128150365411,"lat":39.44764892930234},"year":2022,"acom_code":11,"acom_name":"Extremadura","prov_code":10,"prov_name":"Cáceres","mun_code":10069,"mun_name":"La Cumbre","mun_area_code":"ESP","mun_type":"municipality","mun_name_local":null},{"geo_point_2d":{"lon":-5.6485717334165715,"lat":39.64419059429045},"year":2022,"acom_code":11,"acom_name":"Extremadura","prov_code":10,"prov_name":"Cáceres","mun_code":10070,"mun_name":"Deleitosa","mun_area_code":"ESP","mun_type":"municipality","mun_name_local":null},{"geo_point_2d":{"lon":-6.405260454041601,"lat":39.852322335295725},"year":2022,"acom_code":11,"acom_name":"Extremadura","prov_code":10,"prov_name":"Cáceres","mun_code":10139,"mun_name":"Pedroso de Acim","mun_area_code":"ESP","mun_type":"municipality","mun_name_local":null},{"geo_point_2d":{"lon":-5.459637294394198,"lat":39.86793439789073},"year":2022,"acom_code":11,"acom_name":"Extremadura","prov_code":10,"prov_name":"Cáceres","mun_code":10140,"mun_name":"Peraleda de la Mata","mun_area_code":"ESP","mun_type":"municipality","mun_name_local":null},{"geo_point_2d":{"lon":-6.400367053477898,"lat":40.1380723254252},"year":2022,"acom_code":11,"acom_name":"Extremadura","prov_code":10,"prov_name":"Cáceres","mun_code":10152,"mun_name":"Pozuelo de Zarzón","mun_area_code":"ESP","mun_type":"municipality","mun_name_local":null},{"geo_point_2d":{"lon":-6.810211117470877,"lat":39.65566893888463},"year":2022,"acom_code":11,"acom_name":"Extremadura","prov_code":10,"prov_name":"Cáceres","mun_code":10208,"mun_name":"Villa del Rey","mun_area_code":"ESP","mun_type":"municipality","mun_name_local":null},{"geo_point_2d":{"lon":-5.256938730111564,"lat":39.650572512167464},"year":2022,"acom_code":11,"acom_name":"Extremadura","prov_code":10,"prov_name":"Cáceres","mun_code":10213,"mun_name":"Villar del Pedroso","mun_area_code":"ESP","mun_type":"municipality","mun_name_local":null,"FID":56},{"geo_point_2d":{"lon":-5.731318890124597,"lat":39.33720863050395},"year":2022,"acom_code":11,"acom_name":"Extremadura","prov_code":10,"prov_name":"Cáceres","mun_code":10066,"mun_name":"Conquista de la Sierra","mun_area_code":"ESP","mun_type":"municipality","mun_name_local":null},{"geo_point_2d":{"lon":-6.515275076849707,"lat":40.30481377133519},"year":2022,"acom_code":11,"acom_name":"Extremadura","prov_code":10,"prov_name":"Cáceres","mun_code":10071,"mun_name":"Descargamaría","mun_area_code":"ESP","mun_type":"municipality","mun_name_local":null},{"geo_point_2d":{"lon":-6.28196999388758,"lat":40.000966877196745},"year":2022,"acom_code":11,"acom_name":"Extremadura","prov_code":10,"prov_name":"Cáceres","mun_code":10076,"mun_name":"Galisteo","mun_area_code":"ESP","mun_type":"municipality","mun_name_local":null},{"geo_point_2d":{"lon":-6.628913381191928,"lat":40.19957004398197},"year":2022,"acom_code":11,"acom_name":"Extremadura","prov_code":10,"prov_name":"Cáceres","mun_code":10084,"mun_name":"Gata","mun_area_code":"ESP","mun_type":"municipality","mun_name_local":null},{"geo_point_2d":{"lon":-5.934792150422481,"lat":40.217889928746466},"year":2022,"acom_code":11,"acom_name":"Extremadura","prov_code":10,"prov_name":"Cáceres","mun_code":10174,"mun_name":"Segura de Toro","mun_area_code":"ESP","mun_type":"municipality","mun_name_local":null},{"geo_point_2d":{"lon":-5.870416904210357,"lat":39.99315317979413},"year":2022,"acom_code":11,"acom_name":"Extremadura","prov_code":10,"prov_name":"Cáceres","mun_code":10181,"mun_name":"Tejeda de Tiétar","mun_area_code":"ESP","mun_type":"municipality","mun_name_local":null},{"geo_point_2d":{"lon":-5.391847457239017,"lat":40.07023985482576},"year":2022,"acom_code":11,"acom_name":"Extremadura","prov_code":10,"prov_name":"Cáceres","mun_code":10905,"mun_name":"Pueblonuevo de Miramontes","mun_area_code":"ESP","mun_type":"municipality","mun_name_local":null},{"geo_point_2d":{"lon":-6.5308323398060315,"lat":40.24690536668085},"year":2022,"acom_code":11,"acom_name":"Extremadura","prov_code":10,"prov_name":"Cáceres","mun_code":10039,"mun_name":"Cadalso","mun_area_code":"ESP","mun_type":"municipality","mun_name_local":null},{"geo_point_2d":{"lon":-6.2016242434198405,"lat":40.35426731118562},"year":2022,"acom_code":11,"acom_name":"Extremadura","prov_code":10,"prov_name":"Cáceres","mun_code":10041,"mun_name":"Caminomorisco","mun_area_code":"ESP","mun_type":"municipality","mun_name_local":null},{"geo_point_2d":{"lon":-5.350175793528261,"lat":39.71592258734036},"year":2022,"acom_code":11,"acom_name":"Extremadura","prov_code":10,"prov_name":"Cáceres","mun_code":10083,"mun_name":"Garvín","mun_area_code":"ESP","mun_type":"municipality","mun_name_local":null},{"geo_point_2d":{"lon":-6.279616275103058,"lat":40.27296714602691},"year":2022,"acom_code":11,"acom_name":"Extremadura","prov_code":10,"prov_name":"Cáceres","mun_code":10117,"mun_name":"Marchagaz","mun_area_code":"ESP","mun_type":"municipality","mun_name_local":null},{"geo_point_2d":{"lon":-5.557428486652717,"lat":39.930696185034435},"year":2022,"acom_code":11,"acom_name":"Extremadura","prov_code":10,"prov_name":"Cáceres","mun_code":10131,"mun_name":"Navalmoral de la Mata","mun_area_code":"ESP","mun_type":"municipality","mun_name_local":null},{"geo_point_2d":{"lon":-5.383726017400143,"lat":39.58695439874638},"year":2022,"acom_code":11,"acom_name":"Extremadura","prov_code":10,"prov_name":"Cáceres","mun_code":10132,"mun_name":"Navalvillar de Ibor","mun_area_code":"ESP","mun_type":"municipality","mun_name_local":null},{"geo_point_2d":{"lon":-5.527850296348585,"lat":39.6205874254131},"year":2022,"acom_code":11,"acom_name":"Extremadura","prov_code":10,"prov_name":"Cáceres","mun_code":10159,"mun_name":"Robledollano","mun_area_code":"ESP","mun_type":"municipality","mun_name_local":null},{"geo_point_2d":{"lon":-5.528714121109668,"lat":39.827848251508584},"year":2022,"acom_code":11,"acom_name":"Extremadura","prov_code":10,"prov_name":"Cáceres","mun_code":10199,"mun_name":"Valdehúncar","mun_area_code":"ESP","mun_type":"municipality","mun_name_local":null},{"geo_point_2d":{"lon":-6.072787788434869,"lat":40.26604722079888},"year":2022,"acom_code":11,"acom_name":"Extremadura","prov_code":10,"prov_name":"Cáceres","mun_code":10216,"mun_name":"Zarza de Granadilla","mun_area_code":"ESP","mun_type":"municipality","mun_name_local":null},{"geo_point_2d":{"lon":-5.653298391850851,"lat":39.27680757680555},"year":2022,"acom_code":11,"acom_name":"Extremadura","prov_code":10,"prov_name":"Cáceres","mun_code":10219,"mun_name":"Zorita","mun_area_code":"ESP","mun_type":"municipality","mun_name_local":null},{"geo_point_2d":{"lon":-5.718073779672715,"lat":39.21404940983283},"year":2022,"acom_code":11,"acom_name":"Extremadura","prov_code":10,"prov_name":"Cáceres","mun_code":10009,"mun_name":"Alcollarín","mun_area_code":"ESP","mun_type":"municipality","mun_name_local":null},{"geo_point_2d":{"lon":-6.239759636084351,"lat":40.01539551724818},"year":2022,"acom_code":11,"acom_name":"Extremadura","prov_code":10,"prov_name":"Cáceres","mun_code":10016,"mun_name":"Aldehuela de Jerte","mun_area_code":"ESP","mun_type":"municipality","mun_name_local":null},{"geo_point_2d":{"lon":-6.058942100041794,"lat":39.14137799774196},"year":2022,"acom_code":11,"acom_name":"Extremadura","prov_code":10,"prov_name":"Cáceres","mun_code":10020,"mun_name":"Almoharín","mun_area_code":"ESP","mun_type":"municipality","mun_name_local":null},{"geo_point_2d":{"lon":-5.499985202722863,"lat":39.544925122853975},"year":2022,"acom_code":11,"acom_name":"Extremadura","prov_code":10,"prov_name":"Cáceres","mun_code":10033,"mun_name":"Cabañas del Castillo","mun_area_code":"ESP","mun_type":"municipality","mun_name_local":null},{"geo_point_2d":{"lon":-7.178965671664661,"lat":39.62122637908173},"year":2022,"acom_code":11,"acom_name":"Extremadura","prov_code":10,"prov_name":"Cáceres","mun_code":10046,"mun_name":"Carbajo","mun_area_code":"ESP","mun_type":"municipality","mun_name_local":null},{"geo_point_2d":{"lon":-5.434119682271308,"lat":39.673766001911495},"year":2022,"acom_code":11,"acom_name":"Extremadura","prov_code":10,"prov_name":"Cáceres","mun_code":10060,"mun_name":"Castañar de Ibor","mun_area_code":"ESP","mun_type":"municipality","mun_name_local":null},{"geo_point_2d":{"lon":-7.084405292233359,"lat":39.57990518270756},"year":2022,"acom_code":11,"acom_name":"Extremadura","prov_code":10,"prov_name":"Cáceres","mun_code":10119,"mun_name":"Membrío","mun_area_code":"ESP","mun_type":"municipality","mun_name_local":null},{"geo_point_2d":{"lon":-5.886337100502732,"lat":39.23908245797819},"year":2022,"acom_code":11,"acom_name":"Extremadura","prov_code":10,"prov_name":"Cáceres","mun_code":10209,"mun_name":"Villamesías","mun_area_code":"ESP","mun_type":"municipality","mun_name_local":null},{"geo_point_2d":{"lon":-5.710788546551057,"lat":40.14111026801354},"year":2022,"acom_code":11,"acom_name":"Extremadura","prov_code":10,"prov_name":"Cáceres","mun_code":10014,"mun_name":"Aldeanueva de la Vera","mun_area_code":"ESP","mun_type":"municipality","mun_name_local":null},{"geo_point_2d":{"lon":-6.3840493603750215,"lat":39.798112809370515},"year":2022,"acom_code":11,"acom_name":"Extremadura","prov_code":10,"prov_name":"Cáceres","mun_code":10045,"mun_name":"Cañaveral","mun_area_code":"ESP","mun_type":"municipality","mun_name_local":null},{"geo_point_2d":{"lon":-6.832669164638346,"lat":40.22287799287981},"year":2022,"acom_code":11,"acom_name":"Extremadura","prov_code":10,"prov_name":"Cáceres","mun_code":10072,"mun_name":"Eljas","mun_area_code":"ESP","mun_type":"municipality","mun_name_local":null},{"geo_point_2d":{"lon":-5.356951122569367,"lat":39.848549603025546},"year":2022,"acom_code":11,"acom_name":"Extremadura","prov_code":10,"prov_name":"Cáceres","mun_code":10085,"mun_name":"El Gordo","mun_area_code":"ESP","mun_type":"municipality","mun_name_local":null},{"geo_point_2d":{"lon":-5.761492363431749,"lat":39.58202117348471},"year":2022,"acom_code":11,"acom_name":"Extremadura","prov_code":10,"prov_name":"Cáceres","mun_code":10186,"mun_name":"Torrecillas de la Tiesa","mun_area_code":"ESP","mun_type":"municipality","mun_name_local":null},{"geo_point_2d":{"lon":-6.175492056354054,"lat":39.325687829267096},"year":2022,"acom_code":11,"acom_name":"Extremadura","prov_code":10,"prov_name":"Cáceres","mun_code":10192,"mun_name":"Torremocha","mun_area_code":"ESP","mun_type":"municipality","mun_name_local":null},{"geo_point_2d":{"lon":-6.235771318501988,"lat":39.16450496332083},"year":2022,"acom_code":11,"acom_name":"Extremadura","prov_code":10,"prov_name":"Cáceres","mun_code":10010,"mun_name":"Alcuéscar","mun_area_code":"ESP","mun_type":"municipality","mun_name_local":null},{"geo_point_2d":{"lon":-6.582928090831015,"lat":39.519620273452425},"year":2022,"acom_code":11,"acom_name":"Extremadura","prov_code":10,"prov_name":"Cáceres","mun_code":10021,"mun_name":"Arroyo de la Luz","mun_area_code":"ESP","mun_type":"municipality","mun_name_local":null},{"geo_point_2d":{"lon":-5.890094179934519,"lat":40.11728335983634},"year":2022,"acom_code":11,"acom_name":"Extremadura","prov_code":10,"prov_name":"Cáceres","mun_code":10036,"mun_name":"Cabrero","mun_area_code":"ESP","mun_type":"municipality","mun_name_local":null},{"geo_point_2d":{"lon":-6.513004640982673,"lat":39.6893601580419},"year":2022,"acom_code":11,"acom_name":"Extremadura","prov_code":10,"prov_name":"Cáceres","mun_code":10082,"mun_name":"Garrovillas de Alconétar","mun_area_code":"ESP","mun_type":"municipality","mun_name_local":null},{"geo_point_2d":{"lon":-6.1571354386679396,"lat":40.31247457871885},"year":2022,"acom_code":11,"acom_name":"Extremadura","prov_code":10,"prov_name":"Cáceres","mun_code":10144,"mun_name":"La Pesga","mun_area_code":"ESP","mun_type":"municipality","mun_name_local":null},{"geo_point_2d":{"lon":-5.707526429174358,"lat":39.75953833618003},"year":2022,"acom_code":11,"acom_name":"Extremadura","prov_code":10,"prov_name":"Cáceres","mun_code":10160,"mun_name":"Romangordo","mun_area_code":"ESP","mun_type":"municipality","mun_name_local":null},{"geo_point_2d":{"lon":-5.5171245615202755,"lat":40.13820216025349},"year":2022,"acom_code":11,"acom_name":"Extremadura","prov_code":10,"prov_name":"Cáceres","mun_code":10179,"mun_name":"Talaveruela de la Vera","mun_area_code":"ESP","mun_type":"municipality","mun_name_local":null},{"geo_point_2d":{"lon":-5.950049396811073,"lat":40.12827015936349},"year":2022,"acom_code":11,"acom_name":"Extremadura","prov_code":10,"prov_name":"Cáceres","mun_code":10184,"mun_name":"El Torno","mun_area_code":"ESP","mun_type":"municipality","mun_name_local":null},{"geo_point_2d":{"lon":-5.806534334067423,"lat":39.25509580755354},"year":2022,"acom_code":11,"acom_name":"Extremadura","prov_code":10,"prov_name":"Cáceres","mun_code":10002,"mun_name":"Abertura","mun_area_code":"ESP","mun_type":"municipality","mun_name_local":null},{"geo_point_2d":{"lon":-5.68797072353599,"lat":40.0274578536717},"year":2022,"acom_code":11,"acom_name":"Extremadura","prov_code":10,"prov_name":"Cáceres","mun_code":10065,"mun_name":"Collado de la Vera","mun_area_code":"ESP","mun_type":"municipality","mun_name_local":null},{"geo_point_2d":{"lon":-5.52126040527271,"lat":39.68154244345121},"year":2022,"acom_code":11,"acom_name":"Extremadura","prov_code":10,"prov_name":"Cáceres","mun_code":10075,"mun_name":"Fresnedoso de Ibor","mun_area_code":"ESP","mun_type":"municipality","mun_name_local":null},{"geo_point_2d":{"lon":-5.781578270111812,"lat":40.114862841333924},"year":2022,"acom_code":11,"acom_name":"Extremadura","prov_code":10,"prov_name":"Cáceres","mun_code":10079,"mun_name":"Garganta la Olla","mun_area_code":"ESP","mun_type":"municipality","mun_name_local":null},{"geo_point_2d":{"lon":-5.91730659256402,"lat":39.33140522772286},"year":2022,"acom_code":11,"acom_name":"Extremadura","prov_code":10,"prov_name":"Cáceres","mun_code":10102,"mun_name":"Ibahernando","mun_area_code":"ESP","mun_type":"municipality","mun_name_local":null},{"geo_point_2d":{"lon":-5.975200873128229,"lat":39.26449141621589},"year":2022,"acom_code":11,"acom_name":"Extremadura","prov_code":10,"prov_name":"Cáceres","mun_code":10158,"mun_name":"Robledillo de Trujillo","mun_area_code":"ESP","mun_type":"municipality","mun_name_local":null},{"geo_point_2d":{"lon":-5.859550387355543,"lat":39.88514869720811},"year":2022,"acom_code":11,"acom_name":"Extremadura","prov_code":10,"prov_name":"Cáceres","mun_code":10182,"mun_name":"Toril","mun_area_code":"ESP","mun_type":"municipality","mun_name_local":null},{"geo_point_2d":{"lon":-5.615457710002204,"lat":39.7534796272678},"year":2022,"acom_code":11,"acom_name":"Extremadura","prov_code":10,"prov_name":"Cáceres","mun_code":10197,"mun_name":"Valdecañas de Tajo","mun_area_code":"ESP","mun_type":"municipality","mun_name_local":null},{"geo_point_2d":{"lon":-6.404113429286705,"lat":40.204435630566806},"year":2022,"acom_code":11,"acom_name":"Extremadura","prov_code":10,"prov_name":"Cáceres","mun_code":10211,"mun_name":"Villanueva de la Sierra","mun_area_code":"ESP","mun_type":"municipality","mun_name_local":null},{"geo_point_2d":{"lon":-5.638010287407849,"lat":39.53062039848345},"year":2022,"acom_code":11,"acom_name":"Extremadura","prov_code":10,"prov_name":"Cáceres","mun_code":10011,"mun_name":"Aldeacentenera","mun_area_code":"ESP","mun_type":"municipality","mun_name_local":null},{"geo_point_2d":{"lon":-5.761212270735576,"lat":39.73916919356128},"year":2022,"acom_code":11,"acom_name":"Extremadura","prov_code":10,"prov_name":"Cáceres","mun_code":10057,"mun_name":"Casas de Miravete","mun_area_code":"ESP","mun_type":"municipality","mun_name_local":null},{"geo_point_2d":{"lon":-6.813764136479555,"lat":40.059028005791575},"year":2022,"acom_code":11,"acom_name":"Extremadura","prov_code":10,"prov_name":"Cáceres","mun_code":10064,"mun_name":"Cilleros","mun_area_code":"ESP","mun_type":"municipality","mun_name_local":null},{"geo_point_2d":{"lon":-6.505034759616842,"lat":39.978795214624654},"year":2022,"acom_code":11,"acom_name":"Extremadura","prov_code":10,"prov_name":"Cáceres","mun_code":10067,"mun_name":"Coria","mun_area_code":"ESP","mun_type":"municipality","mun_name_local":null},{"geo_point_2d":{"lon":-5.681105027749233,"lat":40.072920926201334},"year":2022,"acom_code":11,"acom_name":"Extremadura","prov_code":10,"prov_name":"Cáceres","mun_code":10068,"mun_name":"Cuacos de Yuste","mun_area_code":"ESP","mun_type":"municipality","mun_name_local":null},{"geo_point_2d":{"lon":-6.349236028492536,"lat":39.70524340296402},"year":2022,"acom_code":11,"acom_name":"Extremadura","prov_code":10,"prov_name":"Cáceres","mun_code":10098,"mun_name":"Hinojal","mun_area_code":"ESP","mun_type":"municipality","mun_name_local":null},{"geo_point_2d":{"lon":-6.407262137702828,"lat":40.00020760837397},"year":2022,"acom_code":11,"acom_name":"Extremadura","prov_code":10,"prov_name":"Cáceres","mun_code":10129,"mun_name":"Morcillo","mun_area_code":"ESP","mun_type":"municipality","mun_name_local":null},{"geo_point_2d":{"lon":-5.910784694432413,"lat":40.15836784323752},"year":2022,"acom_code":11,"acom_name":"Extremadura","prov_code":10,"prov_name":"Cáceres","mun_code":10154,"mun_name":"Rebollar","mun_area_code":"ESP","mun_type":"municipality","mun_name_local":null},{"geo_point_2d":{"lon":-6.244054592333234,"lat":40.161514870406656},"year":2022,"acom_code":11,"acom_name":"Extremadura","prov_code":10,"prov_name":"Cáceres","mun_code":10172,"mun_name":"Santibáñez el Bajo","mun_area_code":"ESP","mun_type":"municipality","mun_name_local":null},{"geo_point_2d":{"lon":-6.4643441335261835,"lat":39.910151807762986},"year":2022,"acom_code":11,"acom_name":"Extremadura","prov_code":10,"prov_name":"Cáceres","mun_code":10189,"mun_name":"Torrejoncillo","mun_area_code":"ESP","mun_type":"municipality","mun_name_local":null},{"geo_point_2d":{"lon":-6.236751654773104,"lat":40.08352732501271},"year":2022,"acom_code":11,"acom_name":"Extremadura","prov_code":10,"prov_name":"Cáceres","mun_code":10202,"mun_name":"Valdeobispo","mun_area_code":"ESP","mun_type":"municipality","mun_name_local":null},{"geo_point_2d":{"lon":-5.541580672955137,"lat":40.14342018342971},"year":2022,"acom_code":11,"acom_name":"Extremadura","prov_code":10,"prov_name":"Cáceres","mun_code":10206,"mun_name":"Viandar de la Vera","mun_area_code":"ESP","mun_type":"municipality","mun_name_local":null},{"geo_point_2d":{"lon":-5.871660733069267,"lat":40.04991488024783},"year":2022,"acom_code":11,"acom_name":"Extremadura","prov_code":10,"prov_name":"Cáceres","mun_code":10022,"mun_name":"Arroyomolinos de la Vera","mun_area_code":"ESP","mun_type":"municipality","mun_name_local":null},{"geo_point_2d":{"lon":-5.765106514293534,"lat":39.16963651870412},"year":2022,"acom_code":11,"acom_name":"Extremadura","prov_code":10,"prov_name":"Cáceres","mun_code":10043,"mun_name":"Campo Lugar","mun_area_code":"ESP","mun_type":"municipality","mun_name_local":null},{"geo_point_2d":{"lon":-6.481146678052071,"lat":40.21861257504851},"year":2022,"acom_code":11,"acom_name":"Extremadura","prov_code":10,"prov_name":"Cáceres","mun_code":10093,"mun_name":"Hernán-Pérez","mun_area_code":"ESP","mun_type":"municipality","mun_name_local":null},{"geo_point_2d":{"lon":-5.6424995866544725,"lat":39.14170385798052},"year":2022,"acom_code":11,"acom_name":"Extremadura","prov_code":10,"prov_name":"Cáceres","mun_code":10112,"mun_name":"Madrigalejo","mun_area_code":"ESP","mun_type":"municipality","mun_name_local":null},{"geo_point_2d":{"lon":-5.869033723401876,"lat":39.29415484169965},"year":2022,"acom_code":11,"acom_name":"Extremadura","prov_code":10,"prov_name":"Cáceres","mun_code":10153,"mun_name":"Puerto de Santa Cruz","mun_area_code":"ESP","mun_type":"municipality","mun_name_local":null},{"geo_point_2d":{"lon":-5.961386696286091,"lat":39.532199713009874},"year":2022,"acom_code":11,"acom_name":"Extremadura","prov_code":10,"prov_name":"Cáceres","mun_code":10195,"mun_name":"Trujillo","mun_area_code":"ESP","mun_type":"municipality","mun_name_local":null,"FID":122},{"geo_point_2d":{"lon":-6.700419218288821,"lat":40.02388324263183},"year":2022,"acom_code":11,"acom_name":"Extremadura","prov_code":10,"prov_name":"Cáceres","mun_code":10128,"mun_name":"Moraleja","mun_area_code":"ESP","mun_type":"municipality","mun_name_local":null},{"geo_point_2d":{"lon":-6.329944862066675,"lat":40.20736870331834},"year":2022,"acom_code":11,"acom_name":"Extremadura","prov_code":10,"prov_name":"Cáceres","mun_code":10167,"mun_name":"Santa Cruz de Paniagua","mun_area_code":"ESP","mun_type":"municipality","mun_name_local":null},{"geo_point_2d":{"lon":-5.687581680503651,"lat":39.84972654994945},"year":2022,"acom_code":11,"acom_name":"Extremadura","prov_code":10,"prov_name":"Cáceres","mun_code":10173,"mun_name":"Saucedilla","mun_area_code":"ESP","mun_type":"municipality","mun_name_local":null},{"geo_point_2d":{"lon":-7.479196119343294,"lat":39.627392497912794},"year":2022,"acom_code":11,"acom_name":"Extremadura","prov_code":10,"prov_name":"Cáceres","mun_code":10062,"mun_name":"Cedillo","mun_area_code":"ESP","mun_type":"municipality","mun_name_local":null},{"geo_point_2d":{"lon":-6.193570514209991,"lat":40.44717594067365},"year":2022,"acom_code":11,"acom_name":"Extremadura","prov_code":10,"prov_name":"Cáceres","mun_code":10108,"mun_name":"Ladrillar","mun_area_code":"ESP","mun_type":"municipality","mun_name_local":null},{"geo_point_2d":{"lon":-5.858464400571543,"lat":40.17317354603216},"year":2022,"acom_code":11,"acom_name":"Extremadura","prov_code":10,"prov_name":"Cáceres","mun_code":10130,"mun_name":"Navaconcejo","mun_area_code":"ESP","mun_type":"municipality","mun_name_local":null},{"geo_point_2d":{"lon":-6.6425159609841895,"lat":39.64650617898249},"year":2022,"acom_code":11,"acom_name":"Extremadura","prov_code":10,"prov_name":"Cáceres","mun_code":10133,"mun_name":"Navas del Madroño","mun_area_code":"ESP","mun_type":"municipality","mun_name_local":null},{"geo_point_2d":{"lon":-6.510194703443265,"lat":39.79458778560104},"year":2022,"acom_code":11,"acom_name":"Extremadura","prov_code":10,"prov_name":"Cáceres","mun_code":10151,"mun_name":"Portezuelo","mun_area_code":"ESP","mun_type":"municipality","mun_name_local":null},{"geo_point_2d":{"lon":-5.42822955260706,"lat":40.16029248049517},"year":2022,"acom_code":11,"acom_name":"Extremadura","prov_code":10,"prov_name":"Cáceres","mun_code":10212,"mun_name":"Villanueva de la Vera","mun_area_code":"ESP","mun_type":"municipality","mun_name_local":null},{"geo_point_2d":{"lon":-6.551847226841583,"lat":40.05828306679756},"year":2022,"acom_code":11,"acom_name":"Extremadura","prov_code":10,"prov_name":"Cáceres","mun_code":10040,"mun_name":"Calzadilla","mun_area_code":"ESP","mun_type":"municipality","mun_name_local":null},{"geo_point_2d":{"lon":-6.604104657459537,"lat":40.01005319333028},"year":2022,"acom_code":11,"acom_name":"Extremadura","prov_code":10,"prov_name":"Cáceres","mun_code":10053,"mun_name":"Casas de Don Gómez","mun_area_code":"ESP","mun_type":"municipality","mun_name_local":null},{"geo_point_2d":{"lon":-6.352539189403319,"lat":39.889035641288714},"year":2022,"acom_code":11,"acom_name":"Extremadura","prov_code":10,"prov_name":"Cáceres","mun_code":10099,"mun_name":"Holguera","mun_area_code":"ESP","mun_type":"municipality","mun_name_local":null},{"geo_point_2d":{"lon":-6.690263439740601,"lat":40.135476320418135},"year":2022,"acom_code":11,"acom_name":"Extremadura","prov_code":10,"prov_name":"Cáceres","mun_code":10142,"mun_name":"Perales del Puerto","mun_area_code":"ESP","mun_type":"municipality","mun_name_local":null},{"geo_point_2d":{"lon":-5.837544235358696,"lat":40.11620673355864},"year":2022,"acom_code":11,"acom_name":"Extremadura","prov_code":10,"prov_name":"Cáceres","mun_code":10147,"mun_name":"Piornal","mun_area_code":"ESP","mun_type":"municipality","mun_name_local":null},{"geo_point_2d":{"lon":-6.13003576860157,"lat":39.29150557456173},"year":2022,"acom_code":11,"acom_name":"Extremadura","prov_code":10,"prov_name":"Cáceres","mun_code":10198,"mun_name":"Valdefuentes","mun_area_code":"ESP","mun_type":"municipality","mun_name_local":null},{"geo_point_2d":{"lon":-6.319041660542764,"lat":39.96609996156616},"year":2022,"acom_code":11,"acom_name":"Extremadura","prov_code":10,"prov_name":"Cáceres","mun_code":10903,"mun_name":"Alagón del Río","mun_area_code":"ESP","mun_type":"municipality","mun_name_local":null},{"geo_point_2d":{"lon":-5.483565712974739,"lat":40.02550082035341},"year":2022,"acom_code":11,"acom_name":"Extremadura","prov_code":10,"prov_name":"Cáceres","mun_code":10904,"mun_name":"Tiétar","mun_area_code":"ESP","mun_type":"municipality","mun_name_local":null},{"geo_point_2d":{"lon":-6.697738941050508,"lat":39.40454343275951},"year":2022,"acom_code":11,"acom_name":"Extremadura","prov_code":10,"prov_name":"Cáceres","mun_code":10018,"mun_name":"Aliseda","mun_area_code":"ESP","mun_type":"municipality","mun_name_local":null},{"geo_point_2d":{"lon":-6.2808779746324745,"lat":39.23251583992677},"year":2022,"acom_code":11,"acom_name":"Extremadura","prov_code":10,"prov_name":"Cáceres","mun_code":10052,"mun_name":"Casas de Don Antonio","mun_area_code":"ESP","mun_type":"municipality","mun_name_local":null},{"geo_point_2d":{"lon":-6.000379084349251,"lat":40.24237518873248},"year":2022,"acom_code":11,"acom_name":"Extremadura","prov_code":10,"prov_name":"Cáceres","mun_code":10086,"mun_name":"La Granja","mun_area_code":"ESP","mun_type":"municipality","mun_name_local":null},{"geo_point_2d":{"lon":-6.095983702946499,"lat":39.25274706557754},"year":2022,"acom_code":11,"acom_name":"Extremadura","prov_code":10,"prov_name":"Cáceres","mun_code":10188,"mun_name":"Torre de Santa María","mun_area_code":"ESP","mun_type":"municipality","mun_name_local":null},{"geo_point_2d":{"lon":-6.20092463954068,"lat":40.16942917390611},"year":2022,"acom_code":11,"acom_name":"Extremadura","prov_code":10,"prov_name":"Cáceres","mun_code":10006,"mun_name":"Ahigal","mun_area_code":"ESP","mun_type":"municipality","mun_name_local":null},{"geo_point_2d":{"lon":-6.889053370256638,"lat":39.69292604349691},"year":2022,"acom_code":11,"acom_name":"Extremadura","prov_code":10,"prov_name":"Cáceres","mun_code":10008,"mun_name":"Alcántara","mun_area_code":"ESP","mun_type":"municipality","mun_name_local":null},{"geo_point_2d":{"lon":-5.837112037126389,"lat":40.26952951802589},"year":2022,"acom_code":11,"acom_name":"Extremadura","prov_code":10,"prov_name":"Cáceres","mun_code":10096,"mun_name":"Hervás","mun_area_code":"ESP","mun_type":"municipality","mun_name_local":null},{"geo_point_2d":{"lon":-5.932332555025642,"lat":39.12398427613732},"year":2022,"acom_code":11,"acom_name":"Extremadura","prov_code":10,"prov_name":"Cáceres","mun_code":10121,"mun_name":"Miajadas","mun_area_code":"ESP","mun_type":"municipality","mun_name_local":null},{"geo_point_2d":{"lon":-6.254172974501045,"lat":40.40577128847661},"year":2022,"acom_code":11,"acom_name":"Extremadura","prov_code":10,"prov_name":"Cáceres","mun_code":10135,"mun_name":"Nuñomoral","mun_area_code":"ESP","mun_type":"municipality","mun_name_local":null},{"geo_point_2d":{"lon":-6.011122503699328,"lat":39.32906892436734},"year":2022,"acom_code":11,"acom_name":"Extremadura","prov_code":10,"prov_name":"Cáceres","mun_code":10161,"mun_name":"Ruanes","mun_area_code":"ESP","mun_type":"municipality","mun_name_local":null},{"geo_point_2d":{"lon":-6.090004694994037,"lat":39.50494781841803},"year":2022,"acom_code":11,"acom_name":"Extremadura","prov_code":10,"prov_name":"Cáceres","mun_code":10168,"mun_name":"Santa Marta de Magasca","mun_area_code":"ESP","mun_type":"municipality","mun_name_local":null},{"geo_point_2d":{"lon":-6.549040393413627,"lat":40.18674227295655},"year":2022,"acom_code":11,"acom_name":"Extremadura","prov_code":10,"prov_name":"Cáceres","mun_code":10171,"mun_name":"Santibáñez el Alto","mun_area_code":"ESP","mun_type":"municipality","mun_name_local":null},{"geo_point_2d":{"lon":-6.833909979371819,"lat":39.9100521949065},"year":2022,"acom_code":11,"acom_name":"Extremadura","prov_code":10,"prov_name":"Cáceres","mun_code":10218,"mun_name":"Zarza la Mayor","mun_area_code":"ESP","mun_type":"municipality","mun_name_local":null},{"geo_point_2d":{"lon":-5.610440891068207,"lat":39.81805843749972},"year":2022,"acom_code":11,"acom_name":"Extremadura","prov_code":10,"prov_name":"Cáceres","mun_code":10026,"mun_name":"Belvís de Monroy","mun_area_code":"ESP","mun_type":"municipality","mun_name_local":null},{"geo_point_2d":{"lon":-5.907039209233534,"lat":39.188993583188946},"year":2022,"acom_code":11,"acom_name":"Extremadura","prov_code":10,"prov_name":"Cáceres","mun_code":10073,"mun_name":"Escurial","mun_area_code":"ESP","mun_type":"municipality","mun_name_local":null},{"geo_point_2d":{"lon":-5.3201672896185,"lat":39.44976844640582},"year":2022,"acom_code":11,"acom_name":"Extremadura","prov_code":10,"prov_name":"Cáceres","mun_code":10087,"mun_name":"Guadalupe","mun_area_code":"ESP","mun_type":"municipality","mun_name_local":null},{"geo_point_2d":{"lon":-6.141593990910289,"lat":40.19471474400644},"year":2022,"acom_code":11,"acom_name":"Extremadura","prov_code":10,"prov_name":"Cáceres","mun_code":10090,"mun_name":"Guijo de Granadilla","mun_area_code":"ESP","mun_type":"municipality","mun_name_local":null},{"geo_point_2d":{"lon":-5.646495832972336,"lat":40.17031204432991},"year":2022,"acom_code":11,"acom_name":"Extremadura","prov_code":10,"prov_name":"Cáceres","mun_code":10091,"mun_name":"Guijo de Santa Bárbara","mun_area_code":"ESP","mun_type":"municipality","mun_name_local":null},{"geo_point_2d":{"lon":-5.734191547692899,"lat":39.453826827146536},"year":2022,"acom_code":11,"acom_name":"Extremadura","prov_code":10,"prov_name":"Cáceres","mun_code":10113,"mun_name":"Madroñera","mun_area_code":"ESP","mun_type":"municipality","mun_name_local":null},{"geo_point_2d":{"lon":-6.790467447186472,"lat":39.716028648077575},"year":2022,"acom_code":11,"acom_name":"Extremadura","prov_code":10,"prov_name":"Cáceres","mun_code":10118,"mun_name":"Mata de Alcántara","mun_area_code":"ESP","mun_type":"municipality","mun_name_local":null},{"geo_point_2d":{"lon":-6.808867755202759,"lat":40.20575877098557},"year":2022,"acom_code":11,"acom_name":"Extremadura","prov_code":10,"prov_name":"Cáceres","mun_code":10164,"mun_name":"San Martín de Trevejo","mun_area_code":"ESP","mun_type":"municipality","mun_name_local":null},{"geo_point_2d":{"lon":-5.8370612025258355,"lat":39.34093488538126},"year":2022,"acom_code":11,"acom_name":"Extremadura","prov_code":10,"prov_name":"Cáceres","mun_code":10166,"mun_name":"Santa Cruz de la Sierra","mun_area_code":"ESP","mun_type":"municipality","mun_name_local":null},{"geo_point_2d":{"lon":-6.103297629980042,"lat":39.797883921935075},"year":2022,"acom_code":11,"acom_name":"Extremadura","prov_code":10,"prov_name":"Cáceres","mun_code":10175,"mun_name":"Serradilla","mun_area_code":"ESP","mun_type":"municipality","mun_name_local":null},{"geo_point_2d":{"lon":-5.90237399369957,"lat":40.14282234361893},"year":2022,"acom_code":11,"acom_name":"Extremadura","prov_code":10,"prov_name":"Cáceres","mun_code":10196,"mun_name":"Valdastillas","mun_area_code":"ESP","mun_type":"municipality","mun_name_local":null},{"geo_point_2d":{"lon":-7.215427104597288,"lat":39.44129591483002},"year":2022,"acom_code":11,"acom_name":"Extremadura","prov_code":10,"prov_name":"Cáceres","mun_code":10203,"mun_name":"Valencia de Alcántara","mun_area_code":"ESP","mun_type":"municipality","mun_name_local":null},{"geo_point_2d":{"lon":-5.666371598362288,"lat":39.80091074355663},"year":2022,"acom_code":11,"acom_name":"Extremadura","prov_code":10,"prov_name":"Cáceres","mun_code":10019,"mun_name":"Almaraz","mun_area_code":"ESP","mun_type":"municipality","mun_name_local":null},{"geo_point_2d":{"lon":-6.761276710780113,"lat":39.55404721753567},"year":2022,"acom_code":11,"acom_name":"Extremadura","prov_code":10,"prov_name":"Cáceres","mun_code":10032,"mun_name":"Brozas","mun_area_code":"ESP","mun_type":"municipality","mun_name_local":null,"FID":166},{"geo_point_2d":{"lon":-5.805958806585004,"lat":40.20314149374967},"year":2022,"acom_code":11,"acom_name":"Extremadura","prov_code":10,"prov_name":"Cáceres","mun_code":10035,"mun_name":"Cabezuela del Valle","mun_area_code":"ESP","mun_type":"municipality","mun_name_local":null},{"geo_point_2d":{"lon":-6.218159470212981,"lat":40.049020388868996},"year":2022,"acom_code":11,"acom_name":"Extremadura","prov_code":10,"prov_name":"Cáceres","mun_code":10047,"mun_name":"Carcaboso","mun_area_code":"ESP","mun_type":"municipality","mun_name_local":null},{"geo_point_2d":{"lon":-6.24260089783989,"lat":40.22927634689709},"year":2022,"acom_code":11,"acom_name":"Extremadura","prov_code":10,"prov_name":"Cáceres","mun_code":10063,"mun_name":"Cerezo","mun_area_code":"ESP","mun_type":"municipality","mun_name_local":null},{"geo_point_2d":{"lon":-5.90308314050399,"lat":40.23449329424122},"year":2022,"acom_code":11,"acom_name":"Extremadura","prov_code":10,"prov_name":"Cáceres","mun_code":10080,"mun_name":"Gargantilla","mun_area_code":"ESP","mun_type":"municipality","mun_name_local":null},{"geo_point_2d":{"lon":-5.815090636871112,"lat":40.02482025692874},"year":2022,"acom_code":11,"acom_name":"Extremadura","prov_code":10,"prov_name":"Cáceres","mun_code":10138,"mun_name":"Pasarón de la Vera","mun_area_code":"ESP","mun_type":"municipality","mun_name_local":null},{"geo_point_2d":{"lon":-5.491458948828981,"lat":40.12539719273688},"year":2022,"acom_code":11,"acom_name":"Extremadura","prov_code":10,"prov_name":"Cáceres","mun_code":10204,"mun_name":"Valverde de la Vera","mun_area_code":"ESP","mun_type":"municipality","mun_name_local":null},{"geo_point_2d":{"lon":-6.803950652176791,"lat":40.15721083955601},"year":2022,"acom_code":11,"acom_name":"Extremadura","prov_code":10,"prov_name":"Cáceres","mun_code":10210,"mun_name":"Villamiel","mun_area_code":"ESP","mun_type":"municipality","mun_name_local":null},{"geo_point_2d":{"lon":-6.035792319461377,"lat":39.23788585330126},"year":2022,"acom_code":11,"acom_name":"Extremadura","prov_code":10,"prov_name":"Cáceres","mun_code":10217,"mun_name":"Zarza de Montánchez","mun_area_code":"ESP","mun_type":"municipality","mun_name_local":null},{"geo_point_2d":{"lon":-6.644464128403428,"lat":39.796446252539766},"year":2022,"acom_code":11,"acom_name":"Extremadura","prov_code":10,"prov_name":"Cáceres","mun_code":10004,"mun_name":"Acehúche","mun_area_code":"ESP","mun_type":"municipality","mun_name_local":null},{"geo_point_2d":{"lon":-6.308575925393174,"lat":39.28781462847342},"year":2022,"acom_code":11,"acom_name":"Extremadura","prov_code":10,"prov_name":"Cáceres","mun_code":10012,"mun_name":"Aldea del Cano","mun_area_code":"ESP","mun_type":"municipality","mun_name_local":null},{"geo_point_2d":{"lon":-6.611946720347976,"lat":40.06176821912635},"year":2022,"acom_code":11,"acom_name":"Extremadura","prov_code":10,"prov_name":"Cáceres","mun_code":10101,"mun_name":"Huélaga","mun_area_code":"ESP","mun_type":"municipality","mun_name_local":null},{"geo_point_2d":{"lon":-5.750256722852428,"lat":40.02182346901431},"year":2022,"acom_code":11,"acom_name":"Extremadura","prov_code":10,"prov_name":"Cáceres","mun_code":10104,"mun_name":"Jaraíz de la Vera","mun_area_code":"ESP","mun_type":"municipality","mun_name_local":null},{"geo_point_2d":{"lon":-6.1068685213442,"lat":40.11285443025671},"year":2022,"acom_code":11,"acom_name":"Extremadura","prov_code":10,"prov_name":"Cáceres","mun_code":10136,"mun_name":"Oliva de Plasencia","mun_area_code":"ESP","mun_type":"municipality","mun_name_local":null},{"geo_point_2d":{"lon":-6.618746668896558,"lat":39.8835669174418},"year":2022,"acom_code":11,"acom_name":"Extremadura","prov_code":10,"prov_name":"Cáceres","mun_code":10143,"mun_name":"Pescueza","mun_area_code":"ESP","mun_type":"municipality","mun_name_local":null},{"geo_point_2d":{"lon":-6.936885651097159,"lat":40.18219231550239},"year":2022,"acom_code":11,"acom_name":"Extremadura","prov_code":10,"prov_name":"Cáceres","mun_code":10205,"mun_name":"Valverde del Fresno","mun_area_code":"ESP","mun_type":"municipality","mun_name_local":null},{"geo_point_2d":{"lon":-5.9220268639055815,"lat":39.56986674838845},"year":2022,"acom_code":11,"acom_name":"Extremadura","prov_code":10,"prov_name":"Cáceres","mun_code":10013,"mun_name":"La Aldea del Obispo","mun_area_code":"ESP","mun_type":"municipality","mun_name_local":null},{"geo_point_2d":{"lon":-5.219037037758723,"lat":39.64146020015297},"year":2022,"acom_code":11,"acom_name":"Extremadura","prov_code":10,"prov_name":"Cáceres","mun_code":10048,"mun_name":"Carrascalejo","mun_area_code":"ESP","mun_type":"municipality","mun_name_local":null},{"geo_point_2d":{"lon":-6.473934802095332,"lat":39.56514867155887},"year":2022,"acom_code":11,"acom_name":"Extremadura","prov_code":10,"prov_name":"Cáceres","mun_code":10049,"mun_name":"Casar de Cáceres","mun_area_code":"ESP","mun_type":"municipality","mun_name_local":null},{"geo_point_2d":{"lon":-6.722365324414112,"lat":40.16452486113754},"year":2022,"acom_code":11,"acom_name":"Extremadura","prov_code":10,"prov_name":"Cáceres","mun_code":10100,"mun_name":"Hoyos","mun_area_code":"ESP","mun_type":"municipality","mun_name_local":null},{"geo_point_2d":{"lon":-5.632393224446731,"lat":40.090715506777265},"year":2022,"acom_code":11,"acom_name":"Extremadura","prov_code":10,"prov_name":"Cáceres","mun_code":10105,"mun_name":"Jarandilla de la Vera","mun_area_code":"ESP","mun_type":"municipality","mun_name_local":null},{"geo_point_2d":{"lon":-5.775021376319198,"lat":39.95003322284229},"year":2022,"acom_code":11,"acom_name":"Extremadura","prov_code":10,"prov_name":"Cáceres","mun_code":10114,"mun_name":"Majadas","mun_area_code":"ESP","mun_type":"municipality","mun_name_local":null},{"geo_point_2d":{"lon":-6.151681034437781,"lat":39.66684393471636},"year":2022,"acom_code":11,"acom_name":"Extremadura","prov_code":10,"prov_name":"Cáceres","mun_code":10125,"mun_name":"Monroy","mun_area_code":"ESP","mun_type":"municipality","mun_name_local":null},{"geo_point_2d":{"lon":-6.27622762610722,"lat":40.24580395885208},"year":2022,"acom_code":11,"acom_name":"Extremadura","prov_code":10,"prov_name":"Cáceres","mun_code":10137,"mun_name":"Palomero","mun_area_code":"ESP","mun_type":"municipality","mun_name_local":null},{"geo_point_2d":{"lon":-6.333135487301666,"lat":39.923896849856604},"year":2022,"acom_code":11,"acom_name":"Extremadura","prov_code":10,"prov_name":"Cáceres","mun_code":10155,"mun_name":"Riolobos","mun_area_code":"ESP","mun_type":"municipality","mun_name_local":null},{"geo_point_2d":{"lon":-6.472503579545097,"lat":40.34304992289888},"year":2022,"acom_code":11,"acom_name":"Extremadura","prov_code":10,"prov_name":"Cáceres","mun_code":10156,"mun_name":"Robledillo de Gata","mun_area_code":"ESP","mun_type":"municipality","mun_name_local":null},{"geo_point_2d":{"lon":-5.965683621104984,"lat":39.342031311979916},"year":2022,"acom_code":11,"acom_name":"Extremadura","prov_code":10,"prov_name":"Cáceres","mun_code":10165,"mun_name":"Santa Ana","mun_area_code":"ESP","mun_type":"municipality","mun_name_local":null},{"geo_point_2d":{"lon":-6.382147952526194,"lat":39.645922299247104},"year":2022,"acom_code":11,"acom_name":"Extremadura","prov_code":10,"prov_name":"Cáceres","mun_code":10170,"mun_name":"Santiago del Campo","mun_area_code":"ESP","mun_type":"municipality","mun_name_local":null},{"geo_point_2d":{"lon":-6.4805265351271375,"lat":40.147335726833646},"year":2022,"acom_code":11,"acom_name":"Extremadura","prov_code":10,"prov_name":"Cáceres","mun_code":10207,"mun_name":"Villa del Campo","mun_area_code":"ESP","mun_type":"municipality","mun_name_local":null},{"geo_point_2d":{"lon":-6.14591575985587,"lat":39.13285503525833},"year":2022,"acom_code":11,"acom_name":"Extremadura","prov_code":10,"prov_name":"Cáceres","mun_code":10023,"mun_name":"Arroyomolinos","mun_area_code":"ESP","mun_type":"municipality","mun_name_local":null},{"geo_point_2d":{"lon":-5.8932427336068836,"lat":40.080076751228084},"year":2022,"acom_code":11,"acom_name":"Extremadura","prov_code":10,"prov_name":"Cáceres","mun_code":10025,"mun_name":"Barrado","mun_area_code":"ESP","mun_type":"municipality","mun_name_local":null},{"geo_point_2d":{"lon":-6.662154121096516,"lat":39.967147947097324},"year":2022,"acom_code":11,"acom_name":"Extremadura","prov_code":10,"prov_name":"Cáceres","mun_code":10059,"mun_name":"Casillas de Coria","mun_area_code":"ESP","mun_type":"municipality","mun_name_local":null},{"geo_point_2d":{"lon":-5.934894147995421,"lat":40.03072609888775},"year":2022,"acom_code":11,"acom_name":"Extremadura","prov_code":10,"prov_name":"Cáceres","mun_code":10081,"mun_name":"Gargüera","mun_area_code":"ESP","mun_type":"municipality","mun_name_local":null},{"geo_point_2d":{"lon":-5.658825436326288,"lat":39.723460685659376},"year":2022,"acom_code":11,"acom_name":"Extremadura","prov_code":10,"prov_name":"Cáceres","mun_code":10097,"mun_name":"Higuera de Albalat","mun_area_code":"ESP","mun_type":"municipality","mun_name_local":null},{"geo_point_2d":{"lon":-6.27858748776157,"lat":39.667806874861384},"year":2022,"acom_code":11,"acom_name":"Extremadura","prov_code":10,"prov_name":"Cáceres","mun_code":10178,"mun_name":"Talaván","mun_area_code":"ESP","mun_type":"municipality","mun_name_local":null},{"geo_point_2d":{"lon":-6.042728610291642,"lat":40.147552931635346},"year":2022,"acom_code":11,"acom_name":"Extremadura","prov_code":10,"prov_name":"Cáceres","mun_code":10214,"mun_name":"Villar de Plasencia","mun_area_code":"ESP","mun_type":"municipality","mun_name_local":null},{"geo_point_2d":{"lon":-5.456021186616812,"lat":39.78821632208125},"year":2022,"acom_code":11,"acom_name":"Extremadura","prov_code":10,"prov_name":"Cáceres","mun_code":10030,"mun_name":"Bohonal de Ibor","mun_area_code":"ESP","mun_type":"municipality","mun_name_local":null},{"geo_point_2d":{"lon":-5.940600536222755,"lat":40.09877574549681},"year":2022,"acom_code":11,"acom_name":"Extremadura","prov_code":10,"prov_name":"Cáceres","mun_code":10054,"mun_name":"Casas del Castañar","mun_area_code":"ESP","mun_type":"municipality","mun_name_local":null},{"geo_point_2d":{"lon":-5.762171612890869,"lat":39.36760419007439},"year":2022,"acom_code":11,"acom_name":"Extremadura","prov_code":10,"prov_name":"Cáceres","mun_code":10092,"mun_name":"Herguijuela","mun_area_code":"ESP","mun_type":"municipality","mun_name_local":null},{"geo_point_2d":{"lon":-5.371160992609467,"lat":40.18886938395096},"year":2022,"acom_code":11,"acom_name":"Extremadura","prov_code":10,"prov_name":"Cáceres","mun_code":10111,"mun_name":"Madrigal de la Vera","mun_area_code":"ESP","mun_type":"municipality","mun_name_local":null},{"geo_point_2d":{"lon":-7.2458675486968644,"lat":39.61609265865431},"year":2022,"acom_code":11,"acom_name":"Extremadura","prov_code":10,"prov_name":"Cáceres","mun_code":10169,"mun_name":"Santiago de Alcántara","mun_area_code":"ESP","mun_type":"municipality","mun_name_local":null},{"geo_point_2d":{"lon":-5.68184640392712,"lat":40.240547618444786},"year":2022,"acom_code":11,"acom_name":"Extremadura","prov_code":10,"prov_name":"Cáceres","mun_code":10183,"mun_name":"Tornavacas","mun_area_code":"ESP","mun_type":"municipality","mun_name_local":null},{"geo_point_2d":{"lon":-5.877688009428978,"lat":40.30463896905117},"year":2022,"acom_code":11,"acom_name":"Extremadura","prov_code":10,"prov_name":"Cáceres","mun_code":10024,"mun_name":"Baños de Montemayor","mun_area_code":"ESP","mun_type":"municipality","mun_name_local":null},{"geo_point_2d":{"lon":-6.088320894085725,"lat":39.30847498273146},"year":2022,"acom_code":11,"acom_name":"Extremadura","prov_code":10,"prov_name":"Cáceres","mun_code":10027,"mun_name":"Benquerencia","mun_area_code":"ESP","mun_type":"municipality","mun_name_local":null},{"geo_point_2d":{"lon":-6.672461317943545,"lat":39.89706467911328},"year":2022,"acom_code":11,"acom_name":"Extremadura","prov_code":10,"prov_name":"Cáceres","mun_code":10038,"mun_name":"Cachorrilla","mun_area_code":"ESP","mun_type":"municipality","mun_name_local":null},{"geo_point_2d":{"lon":-6.751025438454353,"lat":39.82819717907227},"year":2022,"acom_code":11,"acom_name":"Extremadura","prov_code":10,"prov_name":"Cáceres","mun_code":10061,"mun_name":"Ceclavín","mun_area_code":"ESP","mun_type":"municipality","mun_name_local":null},{"geo_point_2d":{"lon":-5.618474881352161,"lat":39.42223532293278},"year":2022,"acom_code":11,"acom_name":"Extremadura","prov_code":10,"prov_name":"Cáceres","mun_code":10077,"mun_name":"Garciaz","mun_area_code":"ESP","mun_type":"municipality","mun_name_local":null},{"geo_point_2d":{"lon":-6.3935353033575115,"lat":40.04037762581014},"year":2022,"acom_code":11,"acom_name":"Extremadura","prov_code":10,"prov_name":"Cáceres","mun_code":10089,"mun_name":"Guijo de Galisteo","mun_area_code":"ESP","mun_type":"municipality","mun_name_local":null},{"geo_point_2d":{"lon":-5.831638768989541,"lat":39.69575329899332},"year":2022,"acom_code":11,"acom_name":"Extremadura","prov_code":10,"prov_name":"Cáceres","mun_code":10103,"mun_name":"Jaraicejo","mun_area_code":"ESP","mun_type":"municipality","mun_name_local":null},{"geo_point_2d":{"lon":-5.999698034007932,"lat":40.17699704781416},"year":2022,"acom_code":11,"acom_name":"Extremadura","prov_code":10,"prov_name":"Cáceres","mun_code":10106,"mun_name":"Jarilla","mun_area_code":"ESP","mun_type":"municipality","mun_name_local":null},{"geo_point_2d":{"lon":-5.481434866164602,"lat":39.2732662532831},"year":2022,"acom_code":11,"acom_name":"Extremadura","prov_code":10,"prov_name":"Cáceres","mun_code":10109,"mun_name":"Logrosán","mun_area_code":"ESP","mun_type":"municipality","mun_name_local":null},{"geo_point_2d":{"lon":-5.551650645974787,"lat":39.76508815757676},"year":2022,"acom_code":11,"acom_name":"Extremadura","prov_code":10,"prov_name":"Cáceres","mun_code":10120,"mun_name":"Mesas de Ibor","mun_area_code":"ESP","mun_type":"municipality","mun_name_local":null},{"geo_point_2d":{"lon":-6.178741247747134,"lat":40.27066018017127},"year":2022,"acom_code":11,"acom_name":"Extremadura","prov_code":10,"prov_name":"Cáceres","mun_code":10124,"mun_name":"Mohedas de Granadilla","mun_area_code":"ESP","mun_type":"municipality","mun_name_local":null},{"geo_point_2d":{"lon":-6.5592077027133,"lat":39.88326003094542},"year":2022,"acom_code":11,"acom_name":"Extremadura","prov_code":10,"prov_name":"Cáceres","mun_code":10150,"mun_name":"Portaje","mun_area_code":"ESP","mun_type":"municipality","mun_name_local":null},{"geo_point_2d":{"lon":-6.048683039516569,"lat":39.296212848544165},"year":2022,"acom_code":11,"acom_name":"Extremadura","prov_code":10,"prov_name":"Cáceres","mun_code":10163,"mun_name":"Salvatierra de Santiago","mun_area_code":"ESP","mun_type":"municipality","mun_name_local":null},{"geo_point_2d":{"lon":-6.269412255275135,"lat":39.409766286687834},"year":2022,"acom_code":11,"acom_name":"Extremadura","prov_code":10,"prov_name":"Cáceres","mun_code":10177,"mun_name":"Sierra de Fuentes","mun_area_code":"ESP","mun_type":"municipality","mun_name_local":null},{"geo_point_2d":{"lon":-5.297555059587166,"lat":39.71465749308305},"year":2022,"acom_code":11,"acom_name":"Extremadura","prov_code":10,"prov_name":"Cáceres","mun_code":10200,"mun_name":"Valdelacasa de Tajo","mun_area_code":"ESP","mun_type":"municipality","mun_name_local":null}]